timestamp_us,fl_count,fr_count,rl_count,rr_count,fl_rpm,fr_rpm,rl_rpm,rr_rpm,vx,vy,wz,sp_vx,sp_vy,sp_wz,pwm_fl,pwm_fr,pwm_rl,pwm_rr,ax,ay,az,gx,gy,gz,yaw,pitch,roll
0,25,26,26,24,57.60,59.31,60.02,56.28,0.304,0.000,0.000,0.300,0.000,0.000,300,300,300,300,-0.015,-0.042,9.810,-0.002,-0.005,0.001,0.00,-0.05,0.04
20797,49,50,52,50,55.92,56.32,60.78,59.38,0.294,0.000,0.000,0.300,0.000,0.000,300,300,300,300,0.017,-0.021,9.823,0.011,-0.001,0.002,0.00,0.01,0.09
41104,74,74,79,76,58.30,56.75,62.20,61.10,0.301,0.000,0.000,0.300,0.000,0.000,300,300,300,300,-0.083,-0.017,9.812,0.008,-0.005,-0.003,0.00,-0.09,-0.10
60363,100,101,104,101,59.31,62.20,58.64,56.84,0.308,0.000,0.000,0.300,0.000,0.000,300,300,300,300,0.070,0.023,9.829,-0.003,-0.002,-0.005,0.00,0.11,0.06
80774,125,125,129,126,57.52,56.77,58.07,57.13,0.286,0.000,0.000,0.300,0.000,0.000,300,300,300,300,-0.074,0.010,9.822,-0.007,-0.008,-0.001,0.00,-0.10,0.16
100805,149,151,156,151,56.56,60.77,63.38,57.96,0.297,0.001,0.001,0.300,0.000,0.000,300,300,300,300,-0.002,-0.032,9.813,-0.004,-0.009,0.005,0.00,0.17,-0.04
121203,175,176,182,177,59.17,59.03,60.10,61.33,0.304,0.001,0.001,0.300,0.000,0.000,300,300,300,300,0.011,0.017,9.802,0.005,-0.001,-0.008,0.00,-0.01,0.15
140763,200,201,209,203,56.84,58.14,62.70,59.14,0.312,0.001,0.001,0.300,0.000,0.000,300,300,300,300,0.066,0.016,9.830,0.019,-0.007,0.004,0.01,0.05,0.03
160861,224,225,234,229,56.68,56.46,57.31,59.26,0.305,0.001,0.001,0.300,0.000,0.000,300,300,300,300,0.016,0.015,9.855,-0.004,-0.017,0.002,0.01,0.04,0.03
180801,248,249,259,254,55.19,55.86,58.77,57.52,0.294,0.001,0.001,0.300,0.000,0.000,300,300,300,300,-0.038,-0.002,9.791,0.016,0.004,0.008,0.01,0.01,0.08
201021,272,275,283,279,56.32,59.85,55.17,57.58,0.300,0.001,0.001,0.300,0.000,0.000,300,300,300,300,0.024,-0.002,9.774,-0.007,0.007,0.002,0.01,-0.01,0.01
220430,298,300,309,304,60.83,58.81,59.94,58.99,0.275,0.001,0.001,0.300,0.000,0.000,300,300,300,300,0.017,-0.040,9.796,0.004,-0.002,-0.006,0.01,-0.16,-0.11
241196,323,327,334,329,57.12,62.34,58.67,57.97,0.284,0.001,0.001,0.300,0.000,0.000,300,300,300,300,0.008,0.005,9.837,0.012,0.005,0.011,0.02,0.15,0.06
260708,349,353,358,354,60.59,60.05,55.48,58.20,0.315,0.002,0.001,0.300,0.000,0.000,300,300,300,300,-0.023,0.015,9.790,-0.025,0.008,0.001,0.02,-0.15,-0.06
280506,374,378,384,379,58.03,58.90,60.71,58.56,0.289,0.002,0.001,0.300,0.000,0.000,300,300,300,300,0.034,0.005,9.791,0.019,0.003,0.005,0.02,-0.25,-0.05
300641,398,403,409,404,56.22,57.81,58.76,57.47,0.303,0.002,0.002,0.300,0.000,0.000,300,300,300,300,-0.007,0.021,9.825,0.007,0.007,0.006,0.03,0.06,0.20
320339,423,428,436,430,57.86,57.28,62.71,60.94,0.293,0.002,0.002,0.300,0.000,0.000,300,300,300,300,-0.003,0.002,9.833,0.007,-0.012,0.001,0.03,0.05,-0.04
340181,448,453,463,454,56.95,58.29,62.58,55.83,0.308,0.002,0.002,0.300,0.000,0.000,300,300,300,300,0.045,-0.034,9.803,0.001,0.013,0.010,0.03,-0.10,0.08
360182,473,480,487,479,57.10,61.66,56.17,58.29,0.294,0.002,0.002,0.300,0.000,0.000,300,300,300,300,0.053,-0.018,9.774,0.005,0.005,-0.002,0.04,-0.00,0.14
380452,498,505,513,505,58.28,57.39,59.80,61.30,0.285,0.002,0.002,0.300,0.000,0.000,300,300,300,300,-0.001,0.008,9.798,-0.009,0.010,0.005,0.04,-0.08,0.04
400684,523,531,539,530,58.81,60.04,59.22,58.63,0.309,0.002,0.002,0.300,0.000,0.000,300,300,300,300,-0.055,0.038,9.813,-0.001,-0.005,-0.007,0.05,0.10,-0.18
420595,548,556,565,555,58.79,58.90,59.97,58.63,0.289,0.003,0.002,0.300,0.000,0.000,300,300,300,300,0.000,-0.008,9.822,0.017,-0.013,0.005,0.05,-0.13,0.00
440542,575,581,592,580,62.33,59.00,61.46,58.71,0.296,0.003,0.002,0.300,0.000,0.000,300,300,300,300,0.017,-0.007,9.800,-0.002,-0.004,-0.002,0.06,-0.10,0.06
460624,600,607,618,604,58.71,60.02,60.69,56.14,0.295,0.003,0.002,0.300,0.000,0.000,300,300,300,300,0.037,0.027,9.817,-0.014,0.009,-0.003,0.06,0.11,-0.06
480676,624,633,643,629,56.34,59.52,58.94,58.00,0.301,0.003,0.002,0.300,0.000,0.000,300,300,300,300,-0.040,-0.023,9.813,0.004,-0.011,0.005,0.07,-0.11,-0.08
500906,650,657,668,655,59.50,56.27,57.84,61.20,0.312,0.003,0.003,0.300,0.000,0.000,300,300,300,300,-0.086,0.065,9.801,-0.011,-0.003,-0.001,0.07,0.03,0.07
520502,676,682,693,680,59.70,57.17,58.09,58.68,0.282,0.003,0.003,0.300,0.000,0.000,300,300,300,300,0.052,0.016,9.836,-0.007,-0.009,0.002,0.08,0.11,-0.02
541177,702,708,717,706,60.44,60.57,56.74,60.60,0.315,0.003,0.003,0.300,0.000,0.000,300,300,300,300,0.020,0.028,9.812,0.004,-0.003,-0.004,0.08,-0.17,-0.08
560834,727,733,744,731,59.00,58.20,61.40,59.07,0.289,0.003,0.003,0.300,0.000,0.000,300,300,300,300,-0.021,-0.010,9.823,0.006,-0.015,0.004,0.09,0.09,0.05
580886,752,759,769,757,57.80,59.54,58.96,59.95,0.310,0.003,0.003,0.300,0.000,0.000,300,300,300,300,-0.028,0.018,9.795,-0.006,-0.005,0.005,0.10,0.12,0.05
600865,777,785,795,783,57.78,60.11,59.84,59.37,0.304,0.004,0.003,0.300,0.000,0.000,300,300,300,300,0.018,-0.002,9.818,0.005,-0.018,0.005,0.10,-0.03,-0.00
620719,802,811,820,809,56.91,60.05,58.23,59.22,0.311,0.004,0.003,0.300,0.000,0.000,300,300,300,300,0.036,-0.017,9.771,0.007,-0.003,-0.000,0.11,0.30,0.07
640609,827,838,846,835,58.34,63.37,59.81,59.15,0.297,0.004,0.003,0.300,0.000,0.000,300,300,300,300,-0.016,0.044,9.831,0.000,-0.004,0.001,0.12,0.16,-0.04
660807,852,864,871,860,58.06,60.73,56.96,58.00,0.286,0.004,0.003,0.300,0.000,0.000,300,300,300,300,0.046,0.003,9.794,0.010,-0.007,-0.004,0.13,0.12,-0.01
680843,879,889,897,884,61.84,57.39,59.51,56.01,0.303,0.004,0.003,0.300,0.000,0.000,300,300,300,300,0.026,-0.016,9.775,-0.004,0.010,0.012,0.13,-0.02,-0.00
700721,904,916,921,910,58.90,63.03,55.66,59.52,0.283,0.004,0.004,0.300,0.000,0.000,300,300,300,300,-0.056,0.007,9.821,0.015,0.013,0.002,0.14,0.10,0.04
721067,930,942,946,936,59.55,60.50,58.46,59.73,0.292,0.004,0.004,0.300,0.000,0.000,300,300,300,300,0.057,0.020,9.798,0.006,-0.014,0.005,0.15,0.09,-0.02
740498,955,968,973,962,58.05,59.39,62.11,60.99,0.296,0.004,0.004,0.300,0.000,0.000,300,300,300,300,0.048,0.042,9.809,-0.013,-0.001,-0.004,0.16,-0.23,0.14
760518,980,992,998,986,58.70,55.94,57.74,56.51,0.314,0.005,0.004,0.300,0.000,0.000,300,300,300,300,-0.006,0.027,9.853,0.007,0.010,0.007,0.17,0.07,-0.09
780701,1006,1018,1024,1012,59.42,59.28,60.02,60.59,0.311,0.005,0.004,0.300,0.000,0.000,300,300,300,300,0.045,0.001,9.797,0.002,-0.007,0.008,0.17,-0.03,0.19
800578,1032,1044,1048,1038,59.62,59.39,55.61,59.40,0.298,0.005,0.004,0.300,0.000,0.000,300,300,300,300,0.037,-0.027,9.785,0.018,-0.003,-0.001,0.18,-0.02,-0.23
820665,1059,1070,1074,1063,62.07,60.82,60.45,58.75,0.288,0.005,0.004,0.300,0.000,0.000,300,300,300,300,-0.108,-0.036,9.814,0.004,0.000,0.002,0.19,0.02,0.05
840633,1084,1096,1099,1087,57.15,59.53,57.29,56.61,0.304,0.005,0.004,0.300,0.000,0.000,300,300,300,300,0.028,-0.057,9.823,0.016,-0.003,0.006,0.20,0.16,-0.29
860795,1110,1122,1124,1112,60.96,59.46,57.85,58.48,0.299,0.005,0.004,0.300,0.000,0.000,300,300,300,300,0.126,-0.012,9.825,-0.002,0.008,0.014,0.21,-0.16,0.06
880832,1136,1147,1151,1137,59.87,58.62,62.16,58.05,0.296,0.005,0.004,0.300,0.000,0.000,300,300,300,300,-0.040,-0.046,9.805,0.006,-0.007,0.008,0.22,-0.04,0.03
900879,1161,1173,1176,1162,57.93,59.34,57.52,58.85,0.294,0.005,0.004,0.300,0.000,0.000,300,300,300,300,0.105,0.023,9.766,0.008,-0.017,0.005,0.23,-0.17,0.00
920535,1186,1198,1204,1187,58.64,59.01,63.66,58.78,0.303,0.005,0.005,0.300,0.000,0.000,300,300,300,300,0.074,0.007,9.782,-0.006,0.006,-0.006,0.24,-0.01,-0.02
940680,1211,1223,1231,1212,57.62,58.73,61.43,58.25,0.296,0.006,0.005,0.300,0.000,0.000,300,300,300,300,-0.007,0.005,9.792,0.009,-0.005,0.008,0.25,0.06,-0.20
960604,1235,1247,1257,1238,55.70,56.42,60.22,59.31,0.285,0.006,0.005,0.300,0.000,0.000,300,300,300,300,0.092,-0.039,9.806,0.006,0.021,-0.000,0.26,-0.03,0.04
980373,1262,1271,1282,1264,62.64,56.82,58.76,61.09,0.288,0.006,0.005,0.300,0.000,0.000,300,300,300,300,-0.018,0.021,9.815,-0.008,0.013,0.005,0.27,-0.05,0.00
1000726,1287,1297,1308,1288,59.05,59.24,59.16,56.52,0.289,0.006,0.005,0.300,0.000,0.000,300,300,300,300,0.008,0.006,9.813,0.008,0.001,0.002,0.29,0.03,-0.03
1020909,1312,1322,1333,1313,58.62,58.86,57.74,58.64,0.303,0.006,0.005,0.300,0.000,0.000,300,300,300,300,0.008,-0.000,9.797,0.014,-0.006,0.004,0.30,-0.07,-0.04
1041080,1336,1347,1357,1339,56.01,57.83,56.79,61.18,0.277,0.006,0.005,0.300,0.000,0.000,300,300,300,300,0.039,-0.049,9.800,0.010,-0.029,0.004,0.31,-0.07,0.16
1060979,1362,1373,1382,1365,60.61,60.87,58.49,61.30,0.307,0.006,0.005,0.300,0.000,0.000,300,300,300,300,-0.070,0.030,9.806,0.022,0.013,-0.001,0.32,0.24,0.06
1080946,1387,1398,1407,1391,58.27,57.97,58.66,60.16,0.293,0.006,0.005,0.300,0.000,0.000,300,300,300,300,0.068,-0.038,9.826,-0.005,0.010,0.010,0.33,0.05,-0.09
1100955,1412,1423,1434,1416,58.24,57.69,61.37,57.99,0.283,0.006,0.005,0.300,0.000,0.000,300,300,300,300,0.048,-0.018,9.840,-0.007,0.007,0.005,0.35,-0.07,-0.11
1120961,1437,1447,1460,1441,57.48,55.33,60.48,57.34,0.309,0.007,0.006,0.300,0.000,0.000,300,300,300,300,0.013,-0.018,9.816,-0.013,0.002,0.011,0.36,-0.01,0.06
1140820,1463,1473,1486,1466,60.06,59.65,60.84,56.85,0.310,0.007,0.006,0.300,0.000,0.000,300,300,300,300,-0.038,-0.029,9.816,0.012,0.008,-0.004,0.37,-0.06,-0.04
1160832,1489,1499,1510,1494,60.31,60.24,56.33,64.52,0.292,0.007,0.006,0.300,0.000,0.000,300,300,300,300,0.041,-0.029,9.801,-0.010,0.001,-0.000,0.39,-0.03,-0.01
1180717,1514,1524,1534,1520,59.04,58.91,55.05,60.46,0.289,0.007,0.006,0.300,0.000,0.000,300,300,300,300,-0.004,0.046,9.810,-0.014,0.018,0.005,0.40,0.07,-0.04
1200982,1540,1549,1560,1545,60.02,57.32,59.98,58.15,0.293,0.007,0.006,0.300,0.000,0.000,300,300,300,300,0.033,-0.003,9.810,-0.001,0.008,0.010,0.41,-0.03,0.06
1221254,1566,1575,1585,1570,61.21,61.19,58.37,57.99,0.319,0.007,0.006,0.300,0.000,0.000,300,300,300,300,0.040,-0.021,9.806,0.004,0.001,0.003,0.43,0.07,-0.04
1240458,1591,1600,1611,1596,58.96,58.27,60.17,59.64,0.297,0.007,0.006,0.300,0.000,0.000,300,300,300,300,0.033,0.005,9.796,0.011,-0.003,0.009,0.44,-0.01,0.07
1260963,1616,1625,1635,1621,58.50,58.14,55.58,58.60,0.292,0.007,0.006,0.300,0.000,0.000,300,300,300,300,0.009,0.027,9.775,-0.017,0.013,0.005,0.45,-0.09,-0.04
1280643,1642,1651,1663,1647,61.26,59.93,65.35,61.11,0.311,0.007,0.006,0.300,0.000,0.000,300,300,300,300,-0.074,0.019,9.818,0.002,-0.007,0.006,0.47,0.01,-0.10
1300766,1666,1676,1687,1671,56.81,58.81,55.58,55.51,0.301,0.008,0.006,0.300,0.000,0.000,300,300,300,300,-0.031,0.025,9.821,0.010,-0.004,0.011,0.48,-0.01,0.17
1320553,1691,1702,1713,1697,57.61,60.13,61.12,59.23,0.300,0.008,0.007,0.300,0.000,0.000,300,300,300,300,0.076,-0.031,9.830,-0.001,0.000,0.017,0.50,0.01,0.08
1340681,1716,1727,1738,1722,56.97,58.49,57.87,57.74,0.296,0.008,0.007,0.300,0.000,0.000,300,300,300,300,-0.078,0.008,9.793,0.010,-0.008,-0.000,0.51,-0.15,0.16
1360592,1742,1751,1765,1748,60.69,56.53,61.60,60.87,0.312,0.008,0.007,0.300,0.000,0.000,300,300,300,300,-0.040,0.054,9.819,0.002,0.029,0.009,0.53,-0.01,-0.01
1380629,1768,1776,1792,1774,60.59,58.90,62.96,59.85,0.309,0.008,0.007,0.300,0.000,0.000,300,300,300,300,-0.037,0.076,9.866,0.016,-0.014,0.004,0.54,-0.22,-0.07
1400341,1793,1803,1818,1799,58.13,62.93,59.38,58.65,0.305,0.008,0.007,0.300,0.000,0.000,300,300,300,300,0.042,-0.024,9.804,-0.011,0.002,0.000,0.56,0.05,0.06
1420226,1818,1829,1843,1825,57.88,59.78,58.75,60.70,0.299,0.008,0.007,0.300,0.000,0.000,300,300,300,300,-0.021,0.027,9.819,0.011,0.008,0.010,0.58,-0.09,0.14
1440359,1845,1853,1869,1850,61.93,56.61,59.73,57.29,0.296,0.008,0.007,0.300,0.000,0.000,300,300,300,300,-0.020,-0.012,9.796,0.013,0.009,0.010,0.59,-0.02,-0.02
1461214,1871,1878,1896,1875,59.57,58.62,62.89,57.61,0.290,0.008,0.007,0.300,0.000,0.000,300,300,300,300,-0.128,0.009,9.809,-0.015,0.009,0.009,0.61,-0.11,-0.15
1480817,1896,1904,1922,1900,58.39,59.27,59.63,58.93,0.307,0.009,0.007,0.300,0.000,0.000,300,300,300,300,-0.019,0.005,9.848,-0.001,-0.004,-0.001,0.63,0.09,0.01
1500679,1921,1932,1948,1926,58.54,63.71,60.01,60.65,0.314,0.009,0.007,0.300,0.000,0.000,300,300,300,300,0.012,0.024,9.814,0.012,0.010,0.007,0.64,0.05,0.13
1521021,1946,1959,1973,1951,57.90,63.39,57.40,58.96,0.299,0.009,0.008,0.300,0.000,0.000,300,300,300,300,0.038,-0.024,9.793,0.000,-0.008,0.005,0.66,0.10,-0.14
1540629,1972,1985,1999,1977,59.46,60.06,59.11,60.86,0.307,0.009,0.008,0.300,0.000,0.000,300,300,300,300,-0.042,-0.000,9.827,-0.005,0.012,0.009,0.68,-0.02,0.00
1560657,1996,2010,2025,2003,55.37,57.42,60.54,59.44,0.307,0.009,0.008,0.300,0.000,0.000,300,300,300,300,-0.051,-0.019,9.790,0.001,0.020,0.006,0.69,-0.17,-0.04
1580960,2021,2035,2050,2028,58.22,57.96,57.40,57.76,0.318,0.009,0.008,0.300,0.000,0.000,300,300,300,300,-0.031,0.043,9.804,0.006,-0.017,0.013,0.71,0.06,-0.06
1600829,2047,2060,2075,2053,60.48,57.62,58.48,56.92,0.305,0.009,0.008,0.300,0.000,0.000,300,300,300,300,-0.043,-0.001,9.777,0.006,-0.010,0.005,0.73,-0.09,-0.27
1620886,2074,2085,2100,2078,62.86,58.17,58.81,58.64,0.276,0.009,0.008,0.300,0.000,0.000,300,300,300,300,-0.023,0.027,9.815,-0.013,0.006,0.004,0.75,-0.12,0.05
1640883,2098,2110,2126,2102,56.49,57.43,59.14,56.70,0.330,0.009,0.008,0.300,0.000,0.000,300,300,300,300,0.019,0.009,9.815,-0.015,0.004,0.005,0.77,-0.03,0.02
1660725,2124,2134,2151,2128,59.87,56.67,57.07,60.38,0.301,0.010,0.008,0.300,0.000,0.000,300,300,300,300,0.006,0.025,9.792,0.001,-0.005,0.008,0.79,0.05,0.17
1680565,2149,2159,2175,2154,57.56,57.30,56.59,59.13,0.300,0.010,0.008,0.300,0.000,0.000,300,300,300,300,0.018,0.036,9.809,0.013,-0.015,0.010,0.81,-0.07,-0.19
1700793,2173,2184,2202,2179,54.86,58.56,61.67,58.21,0.309,0.010,0.008,0.300,0.000,0.000,300,300,300,300,-0.037,-0.014,9.835,-0.001,0.013,0.012,0.82,-0.04,-0.08
1720801,2200,2210,2228,2205,61.76,61.27,61.06,60.47,0.300,0.010,0.009,0.300,0.000,0.000,300,300,300,300,-0.078,-0.006,9.850,0.002,-0.011,0.005,0.84,-0.11,0.06
1740795,2227,2236,2254,2229,62.11,60.72,60.49,56.61,0.309,0.010,0.009,0.300,0.000,0.000,300,300,300,300,0.055,-0.019,9.824,0.010,0.004,0.005,0.86,-0.04,0.04
1760961,2253,2262,2281,2253,59.11,59.57,63.52,56.17,0.325,0.010,0.009,0.300,0.000,0.000,300,300,300,300,0.012,0.029,9.808,-0.016,-0.000,0.013,0.88,0.01,-0.00
1780925,2279,2288,2306,2278,60.20,59.68,57.05,58.24,0.298,0.010,0.009,0.300,0.000,0.000,300,300,300,300,-0.020,-0.018,9.798,0.001,-0.014,-0.000,0.90,0.01,-0.06
1800770,2305,2315,2333,2302,60.52,61.98,62.06,56.67,0.298,0.010,0.009,0.300,0.000,0.000,300,300,300,300,0.073,-0.004,9.810,-0.002,-0.002,0.010,0.92,-0.10,0.14
1820406,2331,2340,2360,2329,61.25,58.10,62.36,63.03,0.319,0.010,0.009,0.300,0.000,0.000,300,300,300,300,-0.070,-0.008,9.815,0.019,-0.003,0.016,0.94,0.20,-0.07
1840692,2357,2366,2386,2356,59.22,60.32,60.33,63.37,0.283,0.010,0.009,0.300,0.000,0.000,300,300,300,300,-0.086,-0.044,9.803,-0.010,-0.003,0.002,0.97,-0.02,-0.03
1860895,2383,2391,2411,2382,61.14,59.09,58.50,60.30,0.296,0.011,0.009,0.300,0.000,0.000,300,300,300,300,-0.019,-0.020,9.816,-0.001,0.014,0.017,0.99,-0.19,0.15
1880690,2407,2416,2437,2408,55.54,57.75,59.54,59.49,0.309,0.011,0.009,0.300,0.000,0.000,300,300,300,300,-0.052,-0.072,9.794,-0.007,-0.006,0.005,1.01,0.01,0.12
1900673,2432,2442,2462,2434,58.76,59.74,58.53,61.16,0.305,0.011,0.009,0.300,0.000,0.000,300,300,300,300,-0.034,0.023,9.808,-0.011,0.009,0.015,1.03,-0.01,0.09
1920905,2457,2468,2487,2459,56.95,60.76,59.03,58.63,0.294,0.011,0.010,0.300,0.000,0.000,300,300,300,300,0.031,-0.006,9.819,-0.002,0.001,0.003,1.05,-0.16,0.10
1941127,2483,2493,2514,2484,61.24,58.15,61.79,58.22,0.309,0.011,0.010,0.300,0.000,0.000,300,300,300,300,-0.032,-0.023,9.807,-0.001,0.016,-0.001,1.07,-0.04,0.03
1960899,2508,2517,2538,2510,59.02,56.16,56.47,59.35,0.292,0.011,0.010,0.300,0.000,0.000,300,300,300,300,-0.008,-0.009,9.815,0.004,-0.018,0.008,1.09,0.10,-0.01
1980638,2534,2542,2563,2535,59.49,57.99,57.40,57.43,0.319,0.011,0.010,0.300,0.000,0.000,300,300,300,300,0.001,-0.000,9.798,0.012,-0.018,0.005,1.12,-0.13,-0.11
2000344,2560,2566,2590,2561,60.20,56.01,61.92,60.66,0.287,0.011,0.010,0.300,0.000,0.000,300,300,300,300,-0.013,0.008,9.857,0.006,-0.007,0.006,1.14,0.12,-0.12
2020603,2586,2593,2615,2586,61.16,61.64,57.50,58.29,0.297,0.011,0.010,0.300,0.000,0.000,300,300,300,300,0.040,-0.005,9.798,-0.001,0.001,0.003,1.16,0.03,-0.19
2040704,2612,2618,2640,2612,59.55,57.10,57.59,61.03,0.296,0.011,0.010,0.300,0.000,0.000,300,300,300,300,-0.123,0.025,9.857,0.003,-0.009,-0.006,1.18,0.05,-0.11
2060816,2639,2644,2665,2636,62.58,61.27,58.38,55.90,0.294,0.012,0.010,0.300,0.000,0.000,300,300,300,300,-0.074,0.036,9.828,-0.005,0.014,-0.004,1.21,-0.04,-0.12
2080734,2664,2671,2690,2662,56.91,62.08,58.06,61.11,0.300,0.012,0.010,0.300,0.000,0.000,300,300,300,300,-0.029,0.025,9.814,0.014,0.017,0.013,1.23,-0.10,-0.07
2100975,2690,2697,2717,2687,60.12,60.85,62.41,57.66,0.327,0.012,0.010,0.300,0.000,0.000,300,300,300,300,0.017,0.030,9.779,0.008,0.009,0.014,1.26,-0.12,0.01
2120624,2715,2721,2743,2713,57.88,55.49,60.97,59.80,0.300,0.012,0.011,0.300,0.000,0.000,300,300,300,300,-0.044,0.017,9.801,0.002,0.003,0.017,1.28,-0.13,-0.09
2140933,2741,2747,2769,2738,59.66,59.10,59.39,57.76,0.302,0.012,0.011,0.300,0.000,0.000,300,300,300,300,0.056,0.024,9.841,0.009,0.007,0.003,1.30,0.00,-0.15
2160747,2767,2773,2795,2762,61.22,59.39,60.12,55.50,0.305,0.012,0.011,0.300,0.000,0.000,300,300,300,300,-0.071,0.002,9.782,0.003,0.011,0.016,1.33,0.07,0.01
2180464,2793,2798,2822,2787,59.18,57.98,61.52,56.95,0.282,0.012,0.011,0.300,0.000,0.000,300,300,300,300,-0.052,0.011,9.820,0.000,0.000,0.010,1.35,-0.10,0.09
2200941,2819,2825,2846,2812,60.94,61.68,56.76,57.19,0.281,0.012,0.011,0.300,0.000,0.000,300,300,300,300,-0.002,-0.024,9.837,0.002,-0.009,0.013,1.38,-0.03,0.22
2221294,2844,2851,2872,2838,58.46,59.47,60.79,59.72,0.301,0.012,0.011,0.300,0.000,0.000,300,300,300,300,-0.022,0.036,9.809,0.000,0.002,0.015,1.40,-0.16,-0.07
2240887,2870,2876,2897,2864,60.61,58.13,58.67,59.22,0.303,0.012,0.011,0.300,0.000,0.000,300,300,300,300,-0.005,-0.011,9.794,-0.009,0.003,0.014,1.43,0.10,0.14
2260642,2896,2902,2922,2887,59.31,60.15,58.39,54.06,0.309,0.013,0.011,0.300,0.000,0.000,300,300,300,300,0.073,-0.011,9.797,-0.012,-0.012,0.018,1.45,-0.04,-0.12
2280615,2921,2927,2948,2912,57.96,57.46,59.92,57.75,0.293,0.013,0.011,0.300,0.000,0.000,300,300,300,300,-0.061,-0.006,9.828,-0.012,0.011,0.005,1.48,-0.03,0.05
2300611,2946,2953,2973,2937,58.67,61.31,57.72,57.34,0.288,0.013,0.011,0.300,0.000,0.000,300,300,300,300,0.033,0.044,9.820,0.001,0.006,0.010,1.50,0.03,0.13
2320560,2971,2979,2997,2962,58.44,60.61,56.77,58.85,0.310,0.013,0.011,0.300,0.000,0.000,300,300,300,300,0.017,-0.025,9.816,0.006,0.001,0.005,1.53,-0.02,-0.04
2340559,2995,3004,3023,2987,54.64,58.77,61.01,58.19,0.311,0.013,0.012,0.300,0.000,0.000,300,300,300,300,0.046,0.022,9.860,0.017,0.005,0.013,1.56,0.15,0.04
2360281,3020,3029,3048,3011,58.92,57.83,58.92,56.46,0.303,0.013,0.012,0.300,0.000,0.000,300,300,300,300,0.002,0.038,9.818,0.012,-0.005,0.010,1.58,-0.04,-0.15
2380581,3045,3053,3072,3036,58.83,56.51,56.68,58.29,0.292,0.013,0.012,0.300,0.000,0.000,300,300,300,300,0.030,0.060,9.810,-0.005,0.001,0.011,1.61,-0.06,-0.05
2400540,3071,3079,3098,3061,60.75,59.29,60.72,58.01,0.282,0.013,0.012,0.300,0.000,0.000,300,300,300,300,0.056,0.018,9.817,-0.002,-0.003,0.015,1.64,0.04,0.04
2420347,3096,3104,3125,3087,58.94,59.03,62.00,60.32,0.297,0.013,0.012,0.300,0.000,0.000,300,300,300,300,-0.017,-0.057,9.786,0.016,0.004,0.016,1.66,-0.04,-0.11
2440737,3122,3130,3150,3112,59.13,59.59,57.70,58.74,0.285,0.013,0.012,0.300,0.000,0.000,300,300,300,300,0.020,-0.034,9.813,-0.006,-0.006,0.012,1.69,-0.18,-0.03
2460466,3147,3156,3175,3138,58.83,60.47,58.83,60.63,0.305,0.013,0.012,0.300,0.000,0.000,300,300,300,300,0.004,0.006,9.778,0.001,-0.002,0.006,1.72,0.04,0.08
2480519,3173,3182,3201,3165,59.79,60.34,59.24,62.58,0.304,0.014,0.012,0.300,0.000,0.000,300,300,300,300,0.044,0.019,9.799,0.008,-0.015,0.013,1.74,-0.01,0.15
2500647,3199,3207,3228,3192,59.71,57.16,61.55,62.03,0.277,0.014,0.012,0.300,0.000,0.000,300,300,300,300,0.035,0.013,9.838,0.001,-0.001,0.010,1.77,-0.07,-0.05
2520398,3225,3232,3254,3215,60.27,57.50,61.27,54.03,0.310,0.014,0.012,0.300,0.000,0.000,300,300,300,300,-0.079,0.053,9.830,0.010,0.015,0.014,1.80,0.08,-0.02
2540361,3251,3257,3281,3240,60.36,57.97,63.02,56.94,0.288,0.014,0.013,0.300,0.000,0.000,300,300,300,300,0.036,-0.002,9.814,0.006,0.002,0.013,1.83,0.12,-0.04
2560710,3277,3282,3308,3265,60.90,57.74,61.49,58.39,0.320,0.014,0.013,0.300,0.000,0.000,300,300,300,300,0.114,0.002,9.778,-0.011,-0.010,0.014,1.86,-0.06,0.01
2580397,3302,3308,3334,3291,58.52,59.33,59.41,60.24,0.305,0.014,0.013,0.300,0.000,0.000,300,300,300,300,0.028,-0.012,9.827,-0.008,-0.012,0.008,1.89,0.19,0.05
2600669,3329,3334,3360,3317,63.27,59.11,60.61,59.18,0.302,0.014,0.013,0.300,0.000,0.000,300,300,300,300,0.027,-0.006,9.799,0.008,-0.009,0.016,1.92,-0.07,-0.05
2620612,3355,3360,3386,3341,61.13,59.53,59.91,56.68,0.301,0.014,0.013,0.300,0.000,0.000,300,300,300,300,0.064,0.012,9.817,-0.003,-0.010,0.013,1.95,-0.08,-0.02
2640719,3381,3384,3411,3367,60.48,56.40,57.70,59.60,0.289,0.014,0.013,0.300,0.000,0.000,300,300,300,300,-0.084,0.053,9.793,0.023,0.008,0.004,1.97,-0.02,0.00
2660258,3407,3410,3436,3392,59.64,59.11,58.69,58.76,0.318,0.014,0.013,0.300,0.000,0.000,300,300,300,300,-0.008,0.056,9.827,0.015,0.003,0.019,2.00,-0.06,0.00
2680236,3431,3436,3462,3417,55.82,60.78,60.82,57.31,0.297,0.014,0.013,0.300,0.000,0.000,300,300,300,300,0.016,0.020,9.767,0.005,0.011,0.013,2.03,-0.04,-0.07
2700479,3458,3461,3488,3443,62.61,58.37,61.09,60.83,0.295,0.014,0.013,0.300,0.000,0.000,300,300,300,300,-0.003,-0.020,9.816,-0.003,-0.012,0.008,2.06,-0.03,-0.04
2720444,3484,3486,3515,3468,59.24,57.88,61.80,58.93,0.299,0.015,0.013,0.300,0.000,0.000,300,300,300,300,-0.004,0.001,9.810,-0.007,0.006,0.015,2.09,0.05,-0.00
2740308,3509,3510,3540,3495,58.42,56.05,57.89,61.98,0.306,0.015,0.014,0.300,0.000,0.000,300,300,300,300,0.043,0.041,9.802,-0.010,0.009,0.012,2.12,-0.01,0.11
2760506,3534,3536,3566,3521,57.98,59.68,59.61,59.27,0.302,0.015,0.014,0.300,0.000,0.000,300,300,300,300,-0.004,-0.022,9.798,-0.003,-0.016,0.013,2.16,0.11,-0.05
2780830,3559,3560,3592,3547,57.21,56.71,60.54,59.46,0.295,0.015,0.014,0.300,0.000,0.000,300,300,300,300,-0.073,-0.001,9.782,-0.006,0.013,0.015,2.19,-0.05,-0.16
2800609,3584,3585,3617,3574,58.05,57.72,57.61,62.32,0.290,0.015,0.014,0.300,0.000,0.000,300,300,300,300,0.065,-0.005,9.810,-0.006,-0.016,0.019,2.22,-0.19,0.09
2820511,3609,3609,3643,3600,57.66,55.51,59.94,59.70,0.298,0.015,0.014,0.300,0.000,0.000,300,300,300,300,-0.028,0.043,9.831,-0.008,-0.003,0.025,2.25,-0.03,-0.02
2840369,3636,3635,3670,3625,63.55,60.54,61.98,57.64,0.306,0.015,0.014,0.300,0.000,0.000,300,300,300,300,0.015,0.040,9.837,-0.002,-0.018,0.010,2.28,0.04,-0.10
2860498,3662,3660,3694,3651,61.23,58.47,55.48,60.66,0.313,0.015,0.014,0.300,0.000,0.000,300,300,300,300,-0.076,0.043,9.838,0.006,-0.008,0.012,2.31,0.10,0.11
2880740,3687,3685,3721,3677,58.76,58.85,63.03,59.79,0.304,0.015,0.014,0.300,0.000,0.000,300,300,300,300,-0.010,-0.022,9.815,0.013,0.017,0.018,2.34,0.12,0.03
2901071,3713,3710,3748,3702,59.83,58.93,62.77,58.85,0.284,0.015,0.014,0.300,0.000,0.000,300,300,300,300,0.038,0.013,9.807,0.017,-0.007,0.007,2.38,-0.06,0.06
2920407,3739,3736,3774,3728,61.34,59.84,60.70,59.41,0.299,0.015,0.014,0.300,0.000,0.000,300,300,300,300,0.049,0.008,9.799,-0.001,0.002,0.025,2.41,-0.06,0.02
2940275,3765,3762,3801,3753,59.21,59.49,61.48,58.06,0.280,0.015,0.014,0.300,0.000,0.000,300,300,300,300,-0.108,0.018,9.807,0.031,0.009,0.021,2.44,0.01,-0.05
2960572,3791,3787,3826,3779,60.94,57.70,57.52,59.38,0.312,0.016,0.015,0.300,0.000,0.000,300,300,300,300,0.039,0.008,9.818,0.001,-0.007,0.012,2.47,0.00,0.04
2980457,3817,3813,3852,3805,60.83,61.34,60.50,59.73,0.304,0.016,0.015,0.300,0.000,0.000,300,300,300,300,-0.088,-0.002,9.791,-0.023,-0.007,0.021,2.51,-0.05,0.01
3000341,3842,3839,3877,3831,58.94,60.42,58.13,60.09,0.305,0.016,0.015,0.300,0.000,0.000,300,300,300,300,0.068,0.026,9.830,0.001,0.005,0.015,2.54,0.05,0.09
3020219,3867,3864,3904,3856,57.63,58.84,63.48,58.19,0.301,0.016,0.015,0.300,0.000,0.000,300,300,300,300,-0.008,-0.017,9.834,-0.004,0.007,0.011,2.57,0.11,0.02
3040742,3892,3888,3928,3883,58.57,55.72,56.61,62.61,0.305,0.016,0.015,0.300,0.000,0.000,300,300,300,300,0.029,-0.013,9.790,-0.005,-0.002,0.012,2.61,-0.01,-0.15
3060281,3919,3914,3955,3908,61.75,59.19,61.84,59.07,0.305,0.016,0.015,0.300,0.000,0.000,300,300,300,300,0.004,0.030,9.814,-0.019,0.011,0.022,2.64,-0.01,0.03
3080333,3943,3938,3980,3932,56.42,56.33,58.80,56.18,0.298,0.016,0.015,0.300,0.000,0.000,300,300,300,300,-0.068,-0.012,9.803,0.011,0.004,0.013,2.68,0.09,0.04
3100515,3969,3963,4007,3958,59.95,58.44,61.96,60.94,0.294,0.016,0.015,0.300,0.000,0.000,300,300,300,300,0.029,0.026,9.792,0.011,0.001,0.019,2.71,-0.04,0.10
3120669,3993,3988,4032,3985,56.78,57.26,57.20,63.23,0.291,0.016,0.015,0.300,0.000,0.000,300,300,300,300,0.009,0.090,9.812,0.005,0.000,0.014,2.75,0.09,0.05
3140718,4018,4013,4057,4010,59.01,57.86,57.36,56.91,0.280,0.016,0.015,0.300,0.000,0.000,300,300,300,300,0.035,0.004,9.805,0.004,0.015,0.027,2.78,0.08,-0.11
3160447,4042,4038,4084,4035,56.64,58.96,62.13,57.40,0.310,0.016,0.016,0.300,0.000,0.000,300,300,300,300,-0.034,-0.003,9.799,-0.009,-0.001,0.010,2.81,0.11,-0.00
3180897,4068,4062,4109,4060,59.17,56.34,57.34,58.34,0.299,0.016,0.016,0.300,0.000,0.000,300,300,300,300,-0.018,-0.007,9.820,0.000,0.000,0.015,2.85,-0.17,-0.09
3200638,4094,4089,4135,4084,59.93,62.00,59.52,56.73,0.290,0.016,0.016,0.300,0.000,0.000,300,300,300,300,0.011,-0.032,9.824,0.003,0.014,0.010,2.89,-0.00,0.03
3220555,4119,4115,4162,4109,58.13,60.32,62.04,58.45,0.309,0.016,0.016,0.300,0.000,0.000,300,300,300,300,-0.015,-0.024,9.849,0.023,0.015,0.017,2.92,-0.07,-0.02
3240261,4147,4140,4188,4135,65.38,58.45,60.68,61.18,0.304,0.017,0.016,0.300,0.000,0.000,300,300,300,300,0.060,0.033,9.796,0.001,0.005,0.013,2.96,0.17,0.03
3260768,4173,4166,4214,4160,59.43,61.21,60.78,58.55,0.309,0.017,0.016,0.300,0.000,0.000,300,300,300,300,0.045,0.003,9.782,0.010,-0.004,0.017,2.99,-0.06,0.08
3280724,4198,4192,4240,4185,56.87,59.30,59.47,57.42,0.306,0.017,0.016,0.300,0.000,0.000,300,300,300,300,0.055,0.003,9.816,-0.006,0.003,0.010,3.03,0.02,-0.06
3300568,4222,4218,4267,4212,56.55,60.01,62.93,61.47,0.296,0.017,0.016,0.300,0.000,0.000,300,300,300,300,-0.050,0.013,9.825,-0.010,-0.001,0.019,3.06,0.16,0.03
3320805,4247,4244,4292,4237,57.10,59.68,58.59,58.79,0.314,0.017,0.016,0.300,0.000,0.000,300,300,300,300,0.025,-0.011,9.834,-0.003,0.012,0.014,3.10,0.02,-0.01
3340386,4270,4270,4317,4263,54.42,59.60,57.99,60.73,0.306,0.017,0.016,0.300,0.000,0.000,300,300,300,300,0.062,0.042,9.804,-0.012,0.015,0.012,3.14,0.19,-0.08
3360411,4295,4295,4342,4288,57.71,56.89,58.96,58.98,0.286,0.017,0.016,0.300,0.000,0.000,300,300,300,300,-0.017,-0.033,9.822,0.011,-0.000,0.018,3.17,0.21,0.12
3381097,4321,4321,4369,4313,59.20,59.33,61.81,58.99,0.301,0.017,0.017,0.300,0.000,0.000,300,300,300,300,0.012,0.044,9.838,0.004,-0.004,0.018,3.21,-0.34,0.14
3400866,4348,4345,4396,4340,61.98,56.38,61.70,61.49,0.314,0.017,0.017,0.300,0.000,0.000,300,300,300,300,-0.018,0.007,9.821,0.014,0.016,0.014,3.25,-0.16,0.08
3420575,4373,4369,4421,4365,56.90,55.66,57.84,58.15,0.294,0.017,0.017,0.300,0.000,0.000,300,300,300,300,-0.053,0.011,9.812,-0.007,0.006,0.018,3.29,0.12,0.07
3440819,4398,4396,4446,4391,57.24,61.77,57.64,60.59,0.303,0.017,0.017,0.300,0.000,0.000,300,300,300,300,-0.085,-0.007,9.849,0.001,-0.020,0.020,3.33,0.15,-0.07
3460858,4423,4421,4471,4418,57.99,58.06,58.55,63.11,0.320,0.017,0.017,0.300,0.000,0.000,300,300,300,300,0.026,-0.006,9.811,0.007,0.011,0.022,3.36,-0.07,-0.07
3480390,4448,4445,4496,4443,57.27,56.57,58.91,58.38,0.300,0.017,0.017,0.300,0.000,0.000,300,300,300,300,0.000,0.012,9.821,-0.008,-0.000,0.022,3.40,0.18,0.14
3500715,4474,4471,4520,4469,59.32,60.69,54.96,60.32,0.310,0.017,0.017,0.300,0.000,0.000,300,300,300,300,0.036,0.032,9.842,-0.013,-0.014,0.012,3.44,0.07,0.06
3520505,4500,4496,4545,4495,60.13,57.25,56.99,59.72,0.306,0.017,0.017,0.300,0.000,0.000,300,300,300,300,0.064,0.011,9.829,0.001,0.006,0.016,3.48,-0.09,-0.03
3540947,4525,4523,4571,4521,58.07,61.69,59.51,59.51,0.288,0.017,0.017,0.300,0.000,0.000,300,300,300,300,0.017,0.036,9.787,0.000,-0.009,0.026,3.52,0.14,-0.11
3560739,4553,4548,4597,4546,64.37,58.71,60.64,58.74,0.294,0.018,0.017,0.300,0.000,0.000,300,300,300,300,-0.001,-0.021,9.823,0.000,0.005,0.014,3.56,-0.05,0.19
3580720,4577,4574,4624,4570,56.40,59.58,61.91,55.44,0.307,0.018,0.018,0.300,0.000,0.000,300,300,300,300,-0.021,-0.042,9.828,0.014,0.011,0.016,3.60,0.15,-0.09
3600406,4603,4599,4647,4594,61.18,58.35,52.69,56.62,0.300,0.018,0.018,0.300,0.000,0.000,300,300,300,300,0.057,0.049,9.841,0.002,-0.002,0.013,3.63,-0.10,0.10
3620779,4628,4623,4671,4619,57.76,55.97,55.84,57.61,0.295,0.018,0.018,0.300,0.000,0.000,300,300,300,300,0.010,-0.033,9.787,-0.002,0.005,0.017,3.67,0.02,-0.00
3640633,4652,4648,4696,4646,55.19,57.62,57.18,61.65,0.291,0.018,0.018,0.300,0.000,0.000,300,300,300,300,0.075,-0.019,9.804,0.016,0.003,0.014,3.71,-0.04,-0.09
3661067,4677,4672,4722,4672,59.02,56.59,61.13,59.35,0.312,0.018,0.018,0.300,0.000,0.000,300,300,300,300,-0.062,0.004,9.823,0.019,-0.009,0.014,3.75,0.10,0.03
3680506,4704,4698,4747,4697,62.07,59.36,58.30,58.70,0.282,0.018,0.018,0.300,0.000,0.000,300,300,300,300,-0.006,-0.003,9.791,-0.012,0.012,0.014,3.79,0.16,0.09
3700744,4730,4723,4772,4724,59.28,58.57,58.59,62.86,0.301,0.018,0.018,0.300,0.000,0.000,300,300,300,300,-0.025,0.001,9.827,-0.007,-0.011,0.013,3.83,-0.14,-0.08
3720636,4755,4749,4798,4751,57.89,60.45,60.98,61.55,0.301,0.018,0.018,0.300,0.000,0.000,300,300,300,300,0.051,0.017,9.821,-0.006,0.008,0.014,3.88,0.02,-0.10
3740640,4782,4774,4823,4778,61.49,58.93,58.36,61.94,0.300,0.018,0.018,0.300,0.000,0.000,300,300,300,300,0.102,0.010,9.792,0.005,-0.010,0.009,3.92,0.00,-0.05
3760912,4809,4799,4849,4804,61.89,58.31,60.46,59.43,0.293,0.018,0.018,0.300,0.000,0.000,300,300,300,300,0.010,0.018,9.768,0.017,-0.005,0.022,3.96,0.00,0.04
3780645,4835,4826,4876,4828,60.28,61.77,62.99,55.76,0.314,0.018,0.018,0.300,0.000,0.000,300,300,300,300,-0.027,0.070,9.803,0.020,0.013,0.027,4.00,0.12,-0.01
3800823,4861,4852,4901,4855,60.08,60.24,58.03,61.38,0.308,0.018,0.019,0.300,0.000,0.000,300,300,300,300,0.027,0.017,9.839,0.000,-0.001,0.017,4.04,0.07,-0.12
3820548,4886,4878,4926,4882,58.50,59.98,57.92,61.56,0.290,0.018,0.019,0.300,0.000,0.000,300,300,300,300,0.031,-0.037,9.802,0.006,-0.002,0.016,4.08,0.05,-0.01
3840458,4910,4902,4950,4906,56.75,56.76,56.81,55.58,0.293,0.018,0.019,0.300,0.000,0.000,300,300,300,300,0.083,-0.035,9.775,-0.013,-0.003,0.019,4.12,-0.23,-0.07
3860763,4935,4927,4976,4931,58.45,57.81,59.41,58.66,0.304,0.018,0.019,0.300,0.000,0.000,300,300,300,300,0.078,-0.021,9.787,0.015,0.011,0.013,4.17,0.02,0.01
3880510,4959,4952,5000,4956,55.20,57.01,55.76,58.68,0.285,0.018,0.019,0.300,0.000,0.000,300,300,300,300,0.052,0.026,9.790,-0.013,0.009,0.018,4.21,0.00,0.11
3900478,4983,4977,5025,4981,55.79,58.32,58.54,58.03,0.310,0.018,0.019,0.300,0.000,0.000,300,300,300,300,-0.053,0.014,9.819,-0.014,-0.008,0.024,4.25,0.23,-0.05
3920674,5008,5002,5051,5007,57.67,57.41,60.64,59.61,0.314,0.018,0.019,0.300,0.000,0.000,300,300,300,300,0.020,0.008,9.786,-0.007,0.001,0.016,4.29,0.06,-0.03
3940856,5033,5027,5077,5031,57.99,58.14,59.84,54.85,0.297,0.019,0.019,0.300,0.000,0.000,300,300,300,300,0.036,0.070,9.807,-0.015,-0.000,0.018,4.34,0.08,-0.02
3960917,5058,5052,5102,5057,58.88,58.01,58.44,60.47,0.295,0.019,0.019,0.300,0.000,0.000,300,300,300,300,0.018,0.044,9.829,-0.006,-0.000,0.032,4.38,0.09,-0.10
3980512,5083,5076,5128,5083,58.15,56.71,59.60,59.92,0.301,0.019,0.019,0.300,0.000,0.000,300,300,300,300,0.047,-0.016,9.775,-0.005,-0.007,0.015,4.42,-0.08,-0.03
4000232,5109,5100,5153,5109,59.71,56.64,57.79,60.83,0.302,0.019,0.019,0.300,0.000,0.000,300,300,300,300,-0.095,-0.056,9.828,-0.004,0.010,0.025,4.46,-0.14,0.04
4020466,5134,5126,5178,5133,57.40,60.32,57.87,56.20,0.304,0.019,0.020,0.300,0.000,0.000,300,300,300,300,-0.037,0.045,9.828,-0.023,-0.010,0.020,4.51,0.09,0.11
4040796,5160,5151,5202,5158,59.29,59.07,56.36,57.11,0.293,0.019,0.020,0.300,0.000,0.000,300,300,300,300,-0.040,-0.011,9.820,0.003,-0.003,0.022,4.55,-0.17,0.00
4060377,5185,5177,5228,5182,58.38,60.97,59.52,55.34,0.304,0.019,0.020,0.300,0.000,0.000,300,300,300,300,-0.047,-0.024,9.823,0.004,-0.012,0.032,4.59,-0.09,0.06
4080550,5212,5202,5253,5208,61.83,57.01,59.03,60.30,0.304,0.019,0.020,0.300,0.000,0.000,300,300,300,300,0.085,-0.003,9.827,-0.005,-0.018,0.020,4.64,0.09,-0.07
4100926,5238,5227,5279,5233,60.13,58.25,59.96,57.20,0.300,0.019,0.020,0.300,0.000,0.000,300,300,300,300,0.036,-0.055,9.779,0.002,0.005,0.016,4.68,-0.15,0.16
4120484,5264,5252,5305,5257,60.80,59.07,60.10,56.37,0.317,0.019,0.020,0.300,0.000,0.000,300,300,300,300,0.049,-0.017,9.809,-0.007,0.006,0.020,4.73,0.10,-0.06
4140601,5289,5278,5331,5281,58.84,60.68,60.14,55.31,0.304,0.019,0.020,0.300,0.000,0.000,300,300,300,300,0.032,0.046,9.787,0.007,0.010,0.022,4.77,-0.20,0.14
4160929,5314,5304,5356,5307,58.12,60.60,58.93,60.91,0.287,0.019,0.020,0.300,0.000,0.000,300,300,300,300,-0.016,-0.004,9.788,0.005,-0.002,0.023,4.82,0.10,-0.00
4180569,5340,5331,5380,5333,60.38,62.60,54.85,60.86,0.297,0.019,0.020,0.300,0.000,0.000,300,300,300,300,-0.003,0.070,9.818,0.014,-0.006,0.024,4.86,0.08,0.07
4200996,5364,5356,5405,5358,56.43,58.68,57.64,57.55,0.295,0.019,0.020,0.300,0.000,0.000,300,300,300,300,0.015,0.046,9.810,0.024,0.001,0.024,4.91,0.05,0.21
4220462,5389,5382,5431,5382,58.75,59.33,60.55,56.06,0.286,0.019,0.020,0.300,0.000,0.000,300,300,300,300,0.006,0.066,9.825,0.001,-0.004,0.018,4.95,-0.03,-0.10
4240697,5414,5407,5457,5407,56.92,59.02,60.94,57.21,0.296,0.019,0.021,0.300,0.000,0.000,300,300,300,300,0.035,0.107,9.812,0.005,0.001,0.022,5.00,-0.06,0.01
4261178,5439,5432,5483,5432,58.75,57.91,59.69,58.70,0.313,0.019,0.021,0.300,0.000,0.000,300,300,300,300,-0.033,0.029,9.823,-0.012,0.005,0.018,5.05,0.06,0.01
4280600,5465,5458,5509,5458,61.12,61.13,60.52,60.61,0.300,0.019,0.021,0.300,0.000,0.000,300,300,300,300,0.005,0.035,9.793,0.008,0.002,0.021,5.09,0.12,-0.21
4301039,5490,5483,5534,5484,58.40,56.89,58.57,60.53,0.310,0.019,0.021,0.300,0.000,0.000,300,300,300,300,0.023,-0.007,9.794,-0.013,-0.021,0.021,5.14,0.14,-0.09
4320729,5516,5509,5559,5510,59.69,61.32,58.36,60.03,0.291,0.019,0.021,0.300,0.000,0.000,300,300,300,300,-0.045,0.015,9.818,-0.011,-0.029,0.026,5.18,-0.08,0.05
4340796,5541,5533,5585,5535,59.06,56.62,59.38,58.99,0.279,0.019,0.021,0.300,0.000,0.000,300,300,300,300,-0.068,0.028,9.829,-0.013,0.006,0.023,5.23,0.10,0.09
4361126,5566,5559,5612,5562,56.89,60.52,61.43,62.06,0.312,0.019,0.021,0.300,0.000,0.000,300,300,300,300,-0.020,0.040,9.865,0.010,-0.004,0.029,5.28,-0.00,-0.14
4380658,5591,5585,5638,5587,58.80,60.03,61.17,57.83,0.308,0.019,0.021,0.300,0.000,0.000,300,300,300,300,0.040,0.005,9.816,0.012,0.007,0.021,5.32,-0.16,-0.05
4401223,5618,5612,5664,5612,62.00,62.85,60.11,58.55,0.294,0.019,0.021,0.300,0.000,0.000,300,300,300,300,0.001,0.011,9.823,0.014,0.010,0.019,5.37,-0.05,-0.09
4421023,5643,5639,5691,5637,56.93,61.61,62.18,58.10,0.310,0.019,0.021,0.300,0.000,0.000,300,300,300,300,-0.090,0.039,9.814,-0.000,0.021,0.014,5.42,0.26,0.02
4440813,5670,5664,5715,5662,63.00,58.24,55.08,57.29,0.301,0.019,0.021,0.300,0.000,0.000,300,300,300,300,-0.043,0.046,9.793,0.006,-0.001,0.016,5.47,-0.14,-0.11
4461075,5695,5692,5741,5687,58.91,64.10,59.28,57.85,0.311,0.019,0.022,0.300,0.000,0.000,300,300,300,300,0.026,-0.001,9.780,-0.005,-0.006,0.020,5.51,0.04,0.10
4480961,5719,5717,5767,5712,56.16,57.78,60.84,57.78,0.313,0.019,0.022,0.300,0.000,0.000,300,300,300,300,0.086,-0.015,9.822,-0.005,0.009,0.014,5.56,-0.11,-0.12
4500819,5745,5743,5792,5738,60.47,59.71,57.26,60.59,0.289,0.020,0.022,0.300,0.000,0.000,300,300,300,300,0.057,0.023,9.846,0.009,0.002,0.022,5.61,0.04,-0.02
4520771,5770,5768,5818,5762,58.08,58.44,59.34,55.56,0.304,0.020,0.022,0.300,0.000,0.000,300,300,300,300,-0.083,-0.028,9.807,-0.013,-0.002,0.021,5.66,0.09,-0.07
4540790,5796,5794,5843,5788,60.40,59.29,57.42,61.24,0.305,0.020,0.022,0.300,0.000,0.000,300,300,300,300,-0.013,0.041,9.813,0.011,-0.004,0.019,5.71,-0.10,-0.08
4560704,5822,5819,5868,5813,59.71,58.87,58.25,58.96,0.328,0.020,0.022,0.300,0.000,0.000,300,300,300,300,-0.019,0.007,9.818,-0.006,0.004,0.019,5.75,-0.01,-0.01
4580472,5847,5845,5893,5839,57.70,60.67,57.87,60.31,0.292,0.020,0.022,0.300,0.000,0.000,300,300,300,300,-0.004,0.007,9.814,0.010,0.002,0.025,5.80,-0.06,0.04
4600620,5872,5870,5918,5865,57.42,58.56,58.44,60.27,0.315,0.020,0.022,0.300,0.000,0.000,300,300,300,300,0.069,0.002,9.798,0.001,-0.010,0.022,5.85,0.00,0.08
4621074,5898,5896,5943,5891,60.02,60.68,57.54,60.27,0.305,0.020,0.022,0.300,0.000,0.000,300,300,300,300,0.013,-0.002,9.788,-0.008,-0.013,0.024,5.90,-0.02,-0.07
4640908,5925,5921,5969,5916,63.61,57.27,60.90,57.99,0.289,0.020,0.022,0.300,0.000,0.000,300,300,300,300,-0.061,0.027,9.805,-0.002,-0.002,0.026,5.95,0.06,-0.10
4660660,5950,5948,5995,5942,58.74,61.92,61.10,59.60,0.304,0.020,0.022,0.300,0.000,0.000,300,300,300,300,0.035,-0.035,9.857,-0.002,-0.008,0.031,6.00,0.02,-0.16
4680739,5975,5973,6022,5967,57.55,58.87,62.17,57.75,0.294,0.020,0.023,0.300,0.000,0.000,300,300,300,300,0.018,0.071,9.811,0.008,0.006,0.019,6.05,-0.04,0.05
4700969,6000,5998,6049,5993,57.46,58.23,62.20,60.38,0.314,0.020,0.023,0.300,0.000,0.000,300,300,300,300,-0.015,-0.006,9.822,0.008,0.012,0.024,6.10,-0.07,0.07
4720857,6024,6022,6076,6019,54.93,56.32,63.28,59.27,0.305,0.020,0.023,0.300,0.000,0.000,300,300,300,300,-0.041,0.034,9.838,0.001,-0.004,0.023,6.15,0.08,-0.08
4741132,6050,6047,6102,6045,61.34,59.01,60.73,60.89,0.292,0.020,0.023,0.300,0.000,0.000,300,300,300,300,0.051,-0.038,9.845,0.005,0.006,0.024,6.20,0.07,-0.02
4760594,6075,6072,6127,6069,58.67,58.54,57.92,56.57,0.294,0.020,0.023,0.300,0.000,0.000,300,300,300,300,-0.061,0.013,9.857,-0.008,0.006,0.027,6.25,0.03,0.00
4780882,6100,6097,6153,6095,58.54,57.75,60.27,59.82,0.302,0.020,0.023,0.300,0.000,0.000,300,300,300,300,-0.014,-0.001,9.815,-0.005,0.009,0.027,6.30,-0.07,0.03
4800516,6127,6124,6177,6121,63.03,61.39,55.95,60.98,0.314,0.020,0.023,0.300,0.000,0.000,300,300,300,300,-0.096,0.080,9.796,-0.001,0.009,0.026,6.35,0.05,0.13
4820533,6152,6151,6202,6147,58.77,61.44,57.40,59.79,0.281,0.020,0.023,0.300,0.000,0.000,300,300,300,300,0.028,0.007,9.842,-0.003,0.000,0.015,6.40,0.04,0.04
4840328,6179,6177,6226,6174,63.57,59.99,56.45,63.32,0.306,0.020,0.023,0.300,0.000,0.000,300,300,300,300,-0.076,0.079,9.792,0.001,-0.011,0.027,6.45,-0.02,-0.21
4860647,6205,6203,6251,6198,59.70,59.85,56.96,55.92,0.287,0.020,0.023,0.300,0.000,0.000,300,300,300,300,0.024,0.019,9.759,-0.014,0.005,0.018,6.51,-0.11,-0.05
4880754,6229,6228,6277,6224,56.13,58.00,59.41,59.43,0.295,0.020,0.023,0.300,0.000,0.000,300,300,300,300,0.046,0.075,9.840,-0.018,-0.015,0.031,6.56,-0.06,0.14
4900663,6256,6254,6302,6249,61.82,60.47,59.02,57.40,0.305,0.020,0.024,0.300,0.000,0.000,300,300,300,300,0.086,0.061,9.757,0.006,-0.003,0.019,6.61,-0.01,0.08
4920951,6281,6279,6329,6274,58.16,58.29,62.19,56.83,0.311,0.020,0.024,0.300,0.000,0.000,300,300,300,300,0.006,0.011,9.798,0.002,-0.001,0.024,6.66,0.11,0.07
4940405,6307,6304,6354,6300,60.55,57.27,57.89,59.91,0.314,0.020,0.024,0.300,0.000,0.000,300,300,300,300,-0.076,-0.020,9.791,0.006,0.011,0.021,6.71,-0.09,-0.05
4960533,6333,6330,6379,6326,60.35,59.68,58.82,60.07,0.312,0.020,0.024,0.300,0.000,0.000,300,300,300,300,0.096,0.046,9.843,0.003,0.004,0.019,6.76,0.14,-0.27
4980705,6360,6356,6405,6352,62.96,59.24,59.80,60.41,0.304,0.020,0.024,0.300,0.000,0.000,300,300,300,300,-0.040,0.007,9.847,0.019,-0.001,0.022,6.82,-0.04,-0.09
5000394,6385,6382,6431,6378,57.32,60.22,59.44,59.25,0.308,0.020,0.024,0.300,0.000,0.000,300,300,300,300,-0.138,-0.030,9.803,0.002,0.012,0.018,6.87,-0.09,0.01
5020600,6411,6409,6455,6402,59.21,63.27,56.58,56.78,0.312,0.020,0.024,0.300,0.000,0.000,300,300,300,300,-0.019,0.001,9.826,0.019,0.000,0.025,6.92,0.02,-0.03
5040549,6437,6436,6482,6427,61.21,61.73,62.43,58.50,0.298,0.020,0.024,0.300,0.000,0.000,300,300,300,300,0.086,-0.008,9.827,0.008,-0.013,0.028,6.97,-0.21,0.02
5060701,6463,6462,6509,6452,60.81,59.34,63.41,58.48,0.287,0.020,0.024,0.300,0.000,0.000,300,300,300,300,0.080,0.021,9.797,-0.014,0.003,0.028,7.03,-0.11,-0.08
5081130,6488,6487,6535,6477,58.55,58.15,60.08,58.20,0.306,0.020,0.024,0.300,0.000,0.000,300,300,300,300,-0.027,-0.058,9.816,0.007,0.006,0.022,7.08,-0.01,-0.18
5100630,6513,6512,6560,6501,57.28,57.42,57.60,55.18,0.317,0.020,0.024,0.300,0.000,0.000,300,300,300,300,0.011,0.003,9.813,-0.011,0.016,0.022,7.13,0.06,0.08
5121011,6539,6537,6585,6527,59.59,59.07,58.56,60.48,0.297,0.020,0.025,0.300,0.000,0.000,300,300,300,300,0.035,-0.015,9.782,-0.010,-0.008,0.025,7.19,0.01,-0.02
5141187,6564,6562,6610,6552,57.40,58.43,57.66,58.01,0.279,0.020,0.025,0.300,0.000,0.000,300,300,300,300,0.098,-0.031,9.787,0.003,0.005,0.022,7.24,-0.17,0.12
5161033,6589,6587,6637,6578,59.02,57.38,62.33,59.38,0.294,0.020,0.025,0.300,0.000,0.000,300,300,300,300,-0.060,-0.025,9.828,-0.011,0.019,0.024,7.30,-0.07,0.02
5180663,6613,6612,6662,6603,55.68,57.88,57.85,57.59,0.311,0.020,0.025,0.300,0.000,0.000,300,300,300,300,0.020,0.048,9.843,0.013,-0.003,0.024,7.35,0.17,-0.10
5200976,6636,6638,6689,6630,54.52,61.20,61.61,61.62,0.297,0.020,0.025,0.300,0.000,0.000,300,300,300,300,-0.024,-0.004,9.820,0.011,-0.003,0.028,7.41,-0.12,0.09
5220440,6662,6662,6715,6655,60.58,56.77,60.78,58.32,0.300,0.020,0.025,0.300,0.000,0.000,300,300,300,300,-0.000,0.031,9.795,-0.003,-0.011,0.031,7.46,-0.00,-0.09
5240914,6686,6688,6739,6680,56.49,60.87,56.75,58.16,0.300,0.020,0.025,0.300,0.000,0.000,300,300,300,300,-0.011,-0.007,9.855,0.015,-0.016,0.029,7.51,0.01,-0.08
5261071,6711,6716,6765,6704,57.39,64.31,60.27,56.29,0.305,0.020,0.025,0.300,0.000,0.000,300,300,300,300,-0.018,-0.059,9.791,-0.016,0.009,0.030,7.57,-0.10,-0.02
5281088,6736,6743,6791,6730,57.94,63.23,59.88,60.04,0.292,0.020,0.025,0.300,0.000,0.000,300,300,300,300,-0.030,0.084,9.844,0.000,0.010,0.020,7.62,0.12,-0.05
5300843,6762,6768,6816,6757,60.45,57.26,58.72,62.05,0.302,0.020,0.025,0.300,0.000,0.000,300,300,300,300,0.033,-0.012,9.839,-0.003,0.010,0.025,7.68,0.16,-0.12
5320816,6790,6793,6841,6782,63.73,59.02,58.44,58.70,0.293,0.020,0.025,0.300,0.000,0.000,300,300,300,300,0.009,-0.011,9.772,-0.012,-0.005,0.022,7.73,0.01,-0.14
5340620,6815,6819,6867,6808,57.31,60.77,61.35,60.58,0.301,0.020,0.025,0.300,0.000,0.000,300,300,300,300,0.027,-0.017,9.826,0.021,0.009,0.023,7.79,-0.09,0.06
5360337,6841,6845,6891,6833,61.29,59.45,56.47,58.65,0.307,0.020,0.026,0.300,0.000,0.000,300,300,300,300,-0.013,0.004,9.830,0.018,0.006,0.024,7.84,0.01,0.03
5380621,6867,6872,6917,6859,59.30,62.04,60.69,59.77,0.275,0.020,0.026,0.300,0.000,0.000,300,300,300,300,-0.021,0.032,9.829,-0.009,0.007,0.030,7.90,-0.02,0.15
5400446,6893,6898,6943,6885,59.84,60.64,59.43,60.35,0.292,0.020,0.026,0.300,0.000,0.000,300,300,300,300,-0.031,0.026,9.804,0.011,-0.033,0.033,7.96,0.14,-0.05
5420973,6918,6924,6968,6911,58.83,60.36,57.85,60.56,0.312,0.020,0.026,0.300,0.000,0.000,300,300,300,300,0.008,0.025,9.808,-0.021,0.012,0.032,8.01,0.05,0.02
5440726,6943,6949,6993,6938,57.71,58.25,58.06,62.36,0.293,0.020,0.026,0.300,0.000,0.000,300,300,300,300,-0.065,-0.011,9.809,0.012,-0.003,0.024,8.07,-0.05,-0.14
5460612,6968,6974,7017,6963,57.77,58.02,55.84,56.98,0.301,0.020,0.026,0.300,0.000,0.000,300,300,300,300,0.054,0.018,9.800,-0.006,0.001,0.032,8.12,-0.11,-0.09
5480564,6994,7000,7041,6987,59.48,59.83,56.03,55.32,0.300,0.020,0.026,0.300,0.000,0.000,300,300,300,300,-0.024,0.028,9.803,-0.007,0.004,0.033,8.18,0.07,0.03
5500437,7019,7026,7067,7014,58.49,60.93,59.10,62.21,0.309,0.020,0.026,0.300,0.000,0.000,300,300,300,300,0.032,0.010,9.803,0.003,-0.004,0.029,8.24,-0.06,-0.06
5520705,7044,7053,7091,7040,57.79,62.75,56.31,61.28,0.297,0.020,0.026,0.300,0.000,0.000,300,300,300,300,-0.012,0.017,9.839,-0.003,-0.001,0.026,8.30,0.04,0.07
5540708,7071,7080,7119,7065,63.20,62.20,63.74,58.45,0.304,0.020,0.026,0.300,0.000,0.000,300,300,300,300,0.015,-0.013,9.799,-0.020,-0.007,0.028,8.35,0.06,0.11
5560590,7097,7105,7143,7091,61.23,59.08,56.33,61.15,0.326,0.020,0.026,0.300,0.000,0.000,300,300,300,300,0.007,-0.017,9.817,0.006,0.024,0.023,8.41,-0.20,0.22
5580997,7122,7131,7169,7117,57.89,60.47,60.62,59.64,0.313,0.020,0.026,0.300,0.000,0.000,300,300,300,300,-0.022,0.013,9.795,-0.007,-0.003,0.023,8.47,-0.06,0.08
5601124,7148,7156,7193,7142,59.43,57.12,56.61,58.62,0.291,0.020,0.027,0.300,0.000,0.000,300,300,300,300,-0.015,-0.000,9.798,-0.001,-0.006,0.030,8.53,-0.21,-0.04
5620760,7174,7182,7219,7168,61.18,61.05,60.46,60.47,0.305,0.020,0.027,0.300,0.000,0.000,300,300,300,300,0.058,-0.022,9.833,-0.001,0.015,0.022,8.58,0.01,-0.05
5641064,7200,7208,7245,7194,59.34,59.96,60.25,60.74,0.300,0.020,0.027,0.300,0.000,0.000,300,300,300,300,-0.004,-0.027,9.814,0.003,0.010,0.023,8.64,0.06,-0.09
5660811,7226,7235,7269,7219,60.91,62.31,56.81,57.80,0.302,0.020,0.027,0.300,0.000,0.000,300,300,300,300,-0.008,-0.007,9.807,0.004,-0.022,0.022,8.70,-0.07,-0.01
5681041,7251,7260,7294,7244,58.60,58.30,57.32,57.89,0.294,0.020,0.027,0.300,0.000,0.000,300,300,300,300,0.148,0.034,9.798,0.001,-0.006,0.020,8.76,-0.01,-0.18
5700814,7278,7286,7320,7270,63.63,59.13,60.12,60.28,0.325,0.020,0.027,0.300,0.000,0.000,300,300,300,300,0.037,0.001,9.760,-0.009,-0.005,0.027,8.81,-0.06,0.00
5721230,7302,7311,7345,7297,56.73,58.38,57.64,61.88,0.295,0.020,0.027,0.300,0.000,0.000,300,300,300,300,-0.048,0.029,9.867,-0.006,0.005,0.035,8.87,-0.03,-0.04
5740111,7327,7336,7371,7321,56.84,58.76,59.34,56.16,0.297,0.020,0.027,0.300,0.000,0.000,300,300,300,300,-0.012,-0.005,9.784,0.002,-0.003,0.022,8.93,-0.10,0.12
5760826,7353,7359,7397,7347,60.42,54.06,60.11,60.84,0.290,0.020,0.027,0.300,0.000,0.000,300,300,300,300,-0.040,0.027,9.822,-0.016,-0.006,0.025,8.99,-0.07,-0.06
5781216,7378,7384,7424,7372,58.84,58.08,62.17,58.25,0.293,0.020,0.027,0.300,0.000,0.000,300,300,300,300,0.045,0.046,9.798,0.003,0.012,0.028,9.05,-0.00,0.09
5800948,7404,7409,7450,7398,59.75,58.27,60.09,59.83,0.310,0.020,0.027,0.300,0.000,0.000,300,300,300,300,-0.019,0.034,9.797,-0.007,-0.028,0.022,9.11,-0.02,-0.10
5820834,7430,7435,7477,7424,60.03,61.02,61.51,60.71,0.287,0.020,0.027,0.300,0.000,0.000,300,300,300,300,-0.003,0.033,9.809,-0.012,0.014,0.025,9.17,0.03,0.12
5840601,7455,7460,7501,7451,58.20,58.15,56.13,61.76,0.315,0.020,0.028,0.300,0.000,0.000,300,300,300,300,0.011,-0.005,9.817,0.009,0.003,0.025,9.23,-0.22,-0.09
5860712,7480,7485,7525,7477,57.15,57.22,55.62,59.12,0.296,0.020,0.028,0.300,0.000,0.000,300,300,300,300,-0.001,-0.005,9.838,0.006,0.009,0.017,9.29,0.15,0.03
5880280,7504,7511,7550,7503,56.15,60.22,58.37,60.87,0.275,0.020,0.028,0.300,0.000,0.000,300,300,300,300,-0.015,0.017,9.806,-0.006,0.002,0.027,9.35,-0.15,0.06
5901186,7531,7537,7576,7530,61.66,60.24,61.09,63.12,0.306,0.020,0.028,0.300,0.000,0.000,300,300,300,300,-0.003,-0.020,9.799,-0.011,0.005,0.027,9.41,0.09,0.06
5920848,7558,7562,7602,7555,61.48,57.89,61.27,58.08,0.311,0.020,0.028,0.300,0.000,0.000,300,300,300,300,0.028,0.013,9.788,0.001,0.003,0.029,9.47,-0.11,-0.08
5940739,7583,7587,7628,7581,57.39,58.30,60.70,61.08,0.295,0.020,0.028,0.300,0.000,0.000,300,300,300,300,-0.032,0.068,9.823,-0.007,-0.003,0.023,9.53,0.17,-0.06
5961087,7608,7613,7653,7606,58.95,60.47,59.08,57.08,0.297,0.020,0.028,0.300,0.000,0.000,300,300,300,300,0.067,0.027,9.802,0.004,-0.005,0.030,9.59,-0.05,0.04
5981057,7634,7638,7679,7631,59.35,58.44,60.04,57.17,0.313,0.020,0.028,0.300,0.000,0.000,300,300,300,300,-0.059,0.008,9.803,0.000,-0.017,0.026,9.65,0.10,-0.04
6000958,7661,7663,7705,7657,61.75,58.83,60.03,60.01,0.300,0.019,0.028,0.300,0.000,0.000,300,300,300,300,0.058,-0.008,9.786,0.008,-0.002,0.031,9.71,-0.01,0.06
6020878,7686,7688,7730,7682,58.53,57.04,57.04,58.18,0.296,0.019,0.028,0.300,0.000,0.000,300,300,300,300,0.044,-0.007,9.795,-0.006,-0.008,0.030,9.77,0.08,0.04
6041039,7712,7714,7756,7708,59.19,61.00,59.68,59.29,0.287,0.019,0.028,0.300,0.000,0.000,300,300,300,300,-0.029,0.011,9.813,-0.007,0.007,0.027,9.83,-0.05,0.06
6060454,7738,7739,7782,7734,61.19,58.62,60.88,59.60,0.281,0.019,0.028,0.300,0.000,0.000,300,300,300,300,-0.039,-0.004,9.780,-0.016,0.017,0.036,9.89,-0.08,0.02
6080961,7765,7764,7807,7759,62.40,57.25,57.38,57.59,0.292,0.019,0.029,0.300,0.000,0.000,300,300,300,300,-0.050,0.017,9.835,0.016,-0.005,0.035,9.95,-0.05,-0.03
6100624,7791,7788,7834,7785,59.97,56.07,61.79,60.82,0.303,0.019,0.029,0.300,0.000,0.000,300,300,300,300,0.010,0.026,9.845,-0.001,-0.009,0.033,10.01,-0.08,-0.05
6120398,7816,7813,7858,7812,57.92,57.98,55.97,62.41,0.301,0.019,0.029,0.300,0.000,0.000,300,300,300,300,-0.053,0.038,9.833,-0.006,-0.022,0.032,10.07,0.15,0.13
6140472,7842,7840,7884,7838,61.35,62.61,60.62,61.24,0.304,0.019,0.029,0.300,0.000,0.000,300,300,300,300,0.008,-0.033,9.793,-0.023,-0.002,0.032,10.14,0.10,-0.12
6160355,7868,7865,7910,7862,59.93,58.70,59.61,56.67,0.290,0.019,0.029,0.300,0.000,0.000,300,300,300,300,-0.078,0.074,9.868,-0.006,-0.003,0.031,10.20,-0.09,0.10
6180285,7893,7892,7935,7887,58.58,62.26,57.30,58.47,0.293,0.019,0.029,0.300,0.000,0.000,300,300,300,300,-0.030,0.061,9.837,-0.005,0.010,0.036,10.26,0.06,0.06
6200621,7916,7918,7961,7913,54.34,59.41,60.00,60.31,0.296,0.019,0.029,0.300,0.000,0.000,300,300,300,300,0.017,-0.026,9.793,-0.006,-0.015,0.037,10.32,0.08,-0.02
6220949,7943,7944,7987,7939,63.29,59.56,60.40,60.27,0.309,0.019,0.029,0.300,0.000,0.000,300,300,300,300,0.005,0.019,9.847,-0.002,-0.001,0.028,10.39,-0.05,-0.09
6240534,7970,7971,8012,7964,61.46,62.71,58.76,58.52,0.291,0.019,0.029,0.300,0.000,0.000,300,300,300,300,-0.003,-0.003,9.776,-0.000,-0.001,0.033,10.45,0.11,0.17
6260776,7996,7998,8037,7991,59.92,62.59,57.90,62.56,0.304,0.019,0.029,0.300,0.000,0.000,300,300,300,300,0.046,0.024,9.797,0.003,-0.006,0.017,10.51,-0.10,0.12
6280644,8021,8024,8063,8016,57.92,59.81,60.51,58.55,0.283,0.019,0.029,0.300,0.000,0.000,300,300,300,300,-0.043,-0.002,9.772,0.001,0.012,0.032,10.57,0.06,0.08
6300728,8046,8050,8089,8041,56.95,60.00,59.97,57.49,0.284,0.019,0.029,0.300,0.000,0.000,300,300,300,300,0.055,-0.049,9.817,-0.002,-0.010,0.035,10.64,0.00,0.10
6320842,8070,8076,8115,8066,56.23,59.60,60.45,57.50,0.310,0.019,0.030,0.300,0.000,0.000,300,300,300,300,-0.063,-0.055,9.817,0.005,-0.005,0.027,10.70,0.03,-0.11
6340696,8096,8102,8139,8092,59.10,60.71,55.87,60.95,0.307,0.019,0.030,0.300,0.000,0.000,300,300,300,300,0.028,-0.016,9.792,-0.002,0.005,0.040,10.76,0.09,-0.04
6360790,8122,8128,8165,8117,61.13,60.49,60.30,56.93,0.303,0.019,0.030,0.300,0.000,0.000,300,300,300,300,-0.062,-0.020,9.828,-0.002,0.006,0.037,10.83,-0.05,0.27
6381036,8147,8153,8191,8144,57.47,58.14,59.23,63.21,0.281,0.019,0.030,0.300,0.000,0.000,300,300,300,300,-0.029,0.013,9.810,0.002,0.000,0.033,10.89,0.09,0.10
6400712,8171,8179,8215,8170,56.33,59.64,56.03,59.16,0.315,0.019,0.030,0.300,0.000,0.000,300,300,300,300,0.081,0.001,9.793,0.005,0.001,0.024,10.95,0.03,0.11
6421084,8196,8203,8241,8195,58.20,56.24,59.92,58.85,0.304,0.019,0.030,0.300,0.000,0.000,300,300,300,300,-0.019,-0.002,9.831,-0.015,-0.001,0.025,11.02,-0.02,-0.00
6440833,8223,8228,8266,8221,61.62,58.04,57.47,59.76,0.293,0.019,0.030,0.300,0.000,0.000,300,300,300,300,-0.020,-0.014,9.842,0.014,0.001,0.032,11.08,0.02,0.04
6460726,8248,8254,8290,8247,57.29,60.13,54.63,60.74,0.315,0.019,0.030,0.300,0.000,0.000,300,300,300,300,-0.067,0.004,9.810,-0.023,-0.004,0.041,11.14,-0.01,0.15
6481130,8274,8281,8315,8273,60.99,63.10,58.99,59.77,0.295,0.019,0.030,0.300,0.000,0.000,300,300,300,300,0.096,0.031,9.811,0.004,0.011,0.027,11.21,-0.08,-0.15
6501104,8301,8306,8341,8299,62.91,59.02,60.98,60.58,0.317,0.019,0.030,0.300,0.000,0.000,300,300,300,300,-0.066,-0.030,9.800,0.000,0.003,0.030,11.27,-0.12,-0.07
6520603,8325,8331,8366,8325,56.43,58.03,58.58,59.87,0.299,0.019,0.030,0.300,0.000,0.000,300,300,300,300,-0.027,0.025,9.848,-0.007,-0.007,0.033,11.34,-0.09,0.07
6540983,8350,8358,8392,8350,58.76,63.05,60.48,57.18,0.302,0.018,0.030,0.300,0.000,0.000,300,300,300,300,0.036,-0.003,9.800,-0.013,-0.008,0.023,11.40,-0.08,-0.22
6561060,8376,8383,8417,8375,60.58,57.25,58.05,57.88,0.293,0.018,0.031,0.300,0.000,0.000,300,300,300,300,0.090,0.052,9.817,0.012,-0.010,0.025,11.47,-0.04,-0.00
6580880,8402,8409,8442,8400,60.85,60.23,57.57,58.98,0.322,0.018,0.031,0.300,0.000,0.000,300,300,300,300,-0.017,0.019,9.801,-0.001,-0.000,0.045,11.53,-0.20,-0.09
6601134,8426,8434,8468,8424,56.48,58.88,60.00,55.80,0.315,0.018,0.031,0.300,0.000,0.000,300,300,300,300,0.022,0.035,9.788,-0.014,-0.006,0.022,11.60,0.09,0.05
6620616,8451,8459,8494,8452,57.06,58.76,59.51,63.81,0.285,0.018,0.031,0.300,0.000,0.000,300,300,300,300,0.061,0.081,9.806,-0.012,0.000,0.029,11.66,0.00,0.27
6640558,8477,8486,8520,8476,60.95,62.24,59.84,55.98,0.292,0.018,0.031,0.300,0.000,0.000,300,300,300,300,0.005,-0.008,9.826,0.004,0.010,0.033,11.73,0.05,0.03
6660661,8503,8513,8544,8502,60.11,62.48,55.70,59.55,0.301,0.018,0.031,0.300,0.000,0.000,300,300,300,300,0.058,-0.009,9.787,-0.009,-0.027,0.030,11.79,0.24,0.05
6680507,8527,8539,8569,8526,55.74,60.54,58.77,56.74,0.295,0.018,0.031,0.300,0.000,0.000,300,300,300,300,-0.034,0.007,9.785,0.009,-0.003,0.028,11.86,-0.15,-0.03
6700920,8551,8563,8595,8553,54.74,56.40,59.11,62.82,0.304,0.018,0.031,0.300,0.000,0.000,300,300,300,300,-0.076,0.031,9.794,0.006,0.007,0.032,11.92,0.24,-0.01
6721104,8576,8588,8621,8579,56.98,58.92,59.10,60.19,0.302,0.018,0.031,0.300,0.000,0.000,300,300,300,300,0.021,0.003,9.819,-0.017,0.013,0.036,11.99,-0.16,-0.02
6740560,8602,8614,8644,8604,61.02,59.17,54.33,58.69,0.310,0.018,0.031,0.300,0.000,0.000,300,300,300,300,0.011,-0.014,9.818,-0.013,0.006,0.030,12.05,-0.06,-0.18
6760563,8627,8639,8668,8629,58.06,58.82,56.29,58.75,0.301,0.018,0.031,0.300,0.000,0.000,300,300,300,300,0.009,-0.040,9.788,0.003,-0.009,0.040,12.12,0.07,-0.06
6780826,8654,8664,8693,8655,61.54,57.73,56.96,59.95,0.302,0.018,0.031,0.300,0.000,0.000,300,300,300,300,-0.020,0.023,9.843,-0.024,-0.005,0.029,12.19,-0.08,-0.08
6800731,8680,8690,8720,8681,59.34,60.41,62.36,59.28,0.313,0.018,0.031,0.300,0.000,0.000,300,300,300,300,0.016,-0.010,9.797,0.005,-0.000,0.032,12.25,0.19,0.04
6821035,8704,8716,8745,8706,54.84,59.18,57.77,58.96,0.294,0.018,0.032,0.300,0.000,0.000,300,300,300,300,-0.054,0.020,9.823,-0.015,0.017,0.031,12.32,0.10,-0.06
6840565,8729,8742,8771,8731,57.65,59.40,59.84,57.77,0.306,0.018,0.032,0.300,0.000,0.000,300,300,300,300,-0.030,0.010,9.770,0.016,0.003,0.032,12.38,-0.07,0.08
6860720,8755,8768,8797,8756,60.94,60.50,60.31,58.21,0.298,0.018,0.032,0.300,0.000,0.000,300,300,300,300,0.027,-0.013,9.814,-0.013,-0.005,0.037,12.45,-0.09,-0.09
6880912,8781,8794,8823,8781,60.11,59.18,59.75,58.74,0.300,0.018,0.032,0.300,0.000,0.000,300,300,300,300,0.009,0.011,9.799,-0.009,-0.006,0.030,12.52,-0.05,-0.11
6900725,8807,8821,8849,8806,59.61,62.73,59.88,58.40,0.300,0.018,0.032,0.300,0.000,0.000,300,300,300,300,0.047,0.079,9.789,0.002,-0.009,0.032,12.59,-0.02,0.05
6920943,8833,8846,8873,8830,59.42,57.11,56.26,56.37,0.305,0.017,0.032,0.300,0.000,0.000,300,300,300,300,-0.068,0.008,9.786,-0.008,-0.009,0.030,12.65,0.00,-0.10
6941072,8857,8872,8900,8854,56.05,59.32,62.71,55.09,0.299,0.017,0.032,0.300,0.000,0.000,300,300,300,300,0.073,0.033,9.780,0.012,0.007,0.030,12.72,-0.06,0.04
6960988,8882,8897,8925,8879,59.01,58.26,58.31,58.98,0.297,0.017,0.032,0.300,0.000,0.000,300,300,300,300,-0.057,-0.021,9.821,-0.004,-0.009,0.035,12.79,0.05,-0.12
6980389,8908,8923,8949,8904,60.21,59.97,56.57,57.71,0.280,0.017,0.032,0.300,0.000,0.000,300,300,300,300,0.065,-0.004,9.795,0.004,-0.003,0.023,12.85,-0.00,-0.20
7000348,8933,8949,8973,8930,58.85,60.90,55.35,60.04,0.303,0.017,0.032,0.300,0.000,0.000,300,300,300,300,0.004,0.016,9.827,-0.005,-0.017,0.033,12.92,0.03,0.04
7020604,8959,8975,8997,8955,61.11,60.29,55.15,58.88,0.308,0.017,0.032,0.300,0.000,0.000,300,300,300,300,0.017,0.032,9.788,-0.002,0.004,0.035,12.99,0.02,0.11
7040713,8986,9000,9023,8982,61.66,58.55,60.23,62.31,0.302,0.017,0.032,0.300,0.000,0.000,300,300,300,300,0.037,-0.006,9.804,0.012,-0.012,0.049,13.06,-0.02,-0.14
7060337,9009,9025,9048,9008,53.71,56.95,58.89,60.25,0.301,0.017,0.032,0.300,0.000,0.000,300,300,300,300,-0.050,0.003,9.842,0.003,-0.014,0.035,13.12,0.13,-0.11
7080847,9034,9051,9073,9034,57.54,59.41,57.39,60.10,0.281,0.017,0.033,0.300,0.000,0.000,300,300,300,300,-0.030,0.000,9.818,-0.005,0.014,0.036,13.19,-0.03,-0.07
7100306,9060,9076,9099,9061,59.14,59.05,61.03,61.94,0.278,0.017,0.033,0.300,0.000,0.000,300,300,300,300,-0.109,0.026,9.816,0.011,0.009,0.020,13.26,0.09,0.09
7120269,9086,9100,9125,9086,60.80,55.99,59.38,58.08,0.311,0.017,0.033,0.300,0.000,0.000,300,300,300,300,0.082,0.070,9.806,0.003,-0.005,0.030,13.33,-0.16,0.01
7140630,9111,9126,9151,9111,58.69,60.47,60.14,58.15,0.284,0.017,0.033,0.300,0.000,0.000,300,300,300,300,-0.059,0.003,9.833,0.010,-0.008,0.034,13.40,0.10,0.04
7160746,9138,9150,9177,9137,62.50,56.42,60.11,61.02,0.288,0.017,0.033,0.300,0.000,0.000,300,300,300,300,-0.045,0.001,9.804,0.009,-0.005,0.042,13.47,0.01,-0.18
7180730,9164,9175,9204,9162,59.49,57.81,62.28,58.70,0.293,0.017,0.033,0.300,0.000,0.000,300,300,300,300,-0.119,0.022,9.814,-0.002,0.015,0.028,13.54,-0.05,0.09
7200248,9188,9200,9231,9187,56.22,58.96,62.19,58.61,0.306,0.017,0.033,0.300,0.000,0.000,300,300,300,300,0.075,0.038,9.825,-0.004,-0.007,0.034,13.60,-0.02,0.03
7220721,9214,9227,9257,9211,61.03,61.92,59.91,56.69,0.320,0.017,0.033,0.300,0.000,0.000,300,300,300,300,-0.000,-0.041,9.803,0.005,-0.004,0.029,13.67,-0.04,0.15
7240827,9238,9254,9282,9236,56.36,61.93,57.46,59.08,0.308,0.016,0.033,0.300,0.000,0.000,300,300,300,300,0.051,-0.014,9.781,0.002,0.020,0.038,13.74,-0.06,0.23
7260737,9264,9278,9307,9263,60.72,55.92,57.20,62.48,0.302,0.016,0.033,0.300,0.000,0.000,300,300,300,300,0.042,0.028,9.795,0.011,0.017,0.025,13.81,-0.07,0.06
7280809,9291,9303,9334,9288,62.10,58.37,61.88,58.29,0.311,0.016,0.033,0.300,0.000,0.000,300,300,300,300,0.003,0.006,9.778,0.003,0.021,0.031,13.88,0.03,0.09
7300943,9316,9328,9360,9315,59.06,57.98,60.67,61.67,0.288,0.016,0.033,0.300,0.000,0.000,300,300,300,300,-0.023,-0.009,9.847,0.016,0.003,0.039,13.95,0.18,-0.15
7320395,9342,9354,9384,9340,59.68,61.10,56.71,57.82,0.308,0.016,0.033,0.300,0.000,0.000,300,300,300,300,-0.034,0.052,9.800,-0.012,0.009,0.024,14.02,-0.03,0.01
7340474,9369,9380,9410,9365,61.92,59.13,60.33,57.23,0.302,0.016,0.033,0.300,0.000,0.000,300,300,300,300,-0.111,0.031,9.786,0.013,-0.005,0.035,14.09,-0.20,-0.19
7360332,9394,9406,9436,9392,57.04,59.78,60.43,61.83,0.304,0.016,0.034,0.300,0.000,0.000,300,300,300,300,-0.022,-0.004,9.813,-0.007,-0.014,0.034,14.16,0.16,-0.15
7380657,9420,9433,9461,9419,60.15,62.90,57.16,61.51,0.304,0.016,0.034,0.300,0.000,0.000,300,300,300,300,-0.013,0.036,9.818,-0.006,-0.006,0.034,14.23,0.18,-0.05
7400414,9446,9459,9486,9445,61.02,60.03,58.76,59.96,0.294,0.016,0.034,0.300,0.000,0.000,300,300,300,300,0.022,0.036,9.765,-0.003,-0.008,0.030,14.30,-0.12,-0.11
7420612,9470,9485,9511,9470,56.66,59.19,58.64,57.43,0.316,0.016,0.034,0.300,0.000,0.000,300,300,300,300,0.088,-0.004,9.782,0.001,0.013,0.034,14.37,-0.10,-0.14
7440815,9496,9511,9537,9495,60.97,59.95,59.94,57.98,0.294,0.016,0.034,0.300,0.000,0.000,300,300,300,300,0.013,-0.001,9.820,0.001,-0.005,0.028,14.44,-0.12,0.07
7460572,9522,9538,9562,9521,60.78,61.90,58.39,60.37,0.278,0.016,0.034,0.300,0.000,0.000,300,300,300,300,-0.057,0.015,9.811,-0.012,-0.010,0.028,14.51,0.02,0.02
7480649,9546,9564,9588,9546,54.74,59.33,60.04,57.72,0.305,0.016,0.034,0.300,0.000,0.000,300,300,300,300,0.004,0.079,9.841,0.003,-0.020,0.027,14.58,-0.12,0.10
7500343,9571,9591,9614,9571,58.29,61.47,59.27,58.74,0.300,0.016,0.034,0.300,0.000,0.000,300,300,300,300,0.047,0.027,9.791,-0.012,-0.006,0.037,14.65,0.11,0.06
7520622,9596,9617,9640,9598,57.96,60.22,60.52,61.63,0.306,0.015,0.034,0.300,0.000,0.000,300,300,300,300,0.018,0.020,9.804,0.000,0.018,0.040,14.72,0.08,-0.06
7541009,9621,9641,9664,9622,58.78,56.61,55.94,56.47,0.313,0.015,0.034,0.300,0.000,0.000,300,300,300,300,0.049,0.092,9.790,0.006,-0.003,0.042,14.79,0.01,-0.08
7560874,9647,9666,9689,9648,59.21,57.02,57.73,59.15,0.300,0.015,0.034,0.300,0.000,0.000,300,300,300,300,0.018,-0.017,9.846,0.010,-0.013,0.043,14.86,0.01,-0.18
